{
"type": "FeatureCollection",
"name": "OTB",
"crs": { "type": "name", "properties": { "name": "urn:ogc:def:crs:OGC:1.3:CRS84" } },
"features": [
{ "type": "Feature", "properties": { "City_Region": "Temp_OTB_1", "Location_Type": "Pole", "Location_ID": "Pole_1", "OTB_name": "NBN_1_1\/1", "OTB_serial_number": "823821839", "OTB_installation_date": "2017\/09\/29", "OTB_Template": "External OTB with 1 Splitter 1x8", "Longitude": 6.3759018, "Latitude": 2.3769604, "Comment": "sample data", "ID_Prov": "Temp_1", "search_id": "NBN_1_1\/1" }, "geometry": { "type": "Point", "coordinates": [ 2.376960428956903, 6.377950722972326 ] } },
{ "type": "Feature", "properties": { "City_Region": "Temp_OTB_2", "Location_Type": "Pole", "Location_ID": "Pole_2", "OTB_name": "NBN_1_1\/2", "OTB_serial_number": "823821840", "OTB_installation_date": "2017\/09\/29", "OTB_Template": "External OTB with 1 Splitter 1x8", "Longitude": 6.3759164, "Latitude": 2.381049, "Comment": "sample data", "ID_Prov": "Temp_2", "search_id": "NBN_1_1\/2" }, "geometry": { "type": "Point", "coordinates": [ 2.381049007896229, 6.375901816006784 ] } },
{ "type": "Feature", "properties": { "City_Region": "Temp_OTB_3", "Location_Type": "Pole", "Location_ID": "Pole_3", "OTB_name": "NBN_1_1\/3", "OTB_serial_number": "823821841", "OTB_installation_date": "2017\/09\/29", "OTB_Template": "External OTB with 1 Splitter 1x8", "Longitude": 6.3737826, "Latitude": 2.3850468, "Comment": "sample data", "ID_Prov": "Temp_3", "search_id": "NBN_1_1\/3" }, "geometry": { "type": "Point", "coordinates": [ 2.385046760724113, 6.375916427277898 ] } },
{ "type": "Feature", "properties": { "City_Region": "Temp_OTB_4", "Location_Type": "Pole", "Location_ID": "Pole_4", "OTB_name": "NBN_1_1\/4", "OTB_serial_number": "823821842", "OTB_installation_date": "2017\/09\/29", "OTB_Template": "External OTB with 1 Splitter 1x8", "Longitude": 6.370972, "Latitude": 2.3887406, "Comment": "sample data", "ID_Prov": "Temp_4", "search_id": "NBN_1_1\/4" }, "geometry": { "type": "Point", "coordinates": [ 2.388740641907361, 6.373782634693328 ] } },
{ "type": "Feature", "properties": { "City_Region": "Temp_OTB_5", "Location_Type": "Pole", "Location_ID": "Pole_5", "OTB_name": "NBN_1_1\/5", "OTB_serial_number": "823821843", "OTB_installation_date": "2017\/09\/29", "OTB_Template": "External OTB with 1 Splitter 1x8", "Longitude": 6.368689, "Latitude": 2.3908877, "Comment": "sample data", "ID_Prov": "Temp_5", "search_id": "NBN_1_1\/5" }, "geometry": { "type": "Point", "coordinates": [ 2.390887710345124, 6.370971980376842 ] } },
{ "type": "Feature", "properties": { "City_Region": "Temp_OTB_6", "Location_Type": "Pole", "Location_ID": "Pole_6", "OTB_name": "NBN_1_1\/6", "OTB_serial_number": "823821844", "OTB_installation_date": "2017\/09\/29", "OTB_Template": "External OTB with 1 Splitter 1x8", "Longitude": 6.3680007, "Latitude": 2.3921344, "Comment": "sample data", "ID_Prov": "Temp_6", "search_id": "NBN_1_1\/6" }, "geometry": { "type": "Point", "coordinates": [ 2.39213439524447, 6.368689029417604 ] } },
{ "type": "Feature", "properties": { "City_Region": "Temp_OTB_7", "Location_Type": "Pole", "Location_ID": "Pole_7", "OTB_name": "NBN_1_1\/7", "OTB_serial_number": "823821845", "OTB_installation_date": "2017\/09\/29", "OTB_Template": "External OTB with 1 Splitter 1x8", "Longitude": 6.3674271, "Latitude": 2.3881404, "Comment": "sample data", "ID_Prov": "Temp_7", "search_id": "NBN_1_1\/7" }, "geometry": { "type": "Point", "coordinates": [ 2.388140386215083, 6.368000700502974 ] } },
{ "type": "Feature", "properties": { "City_Region": "Temp_OTB_8", "Location_Type": "Pole", "Location_ID": "Pole_8", "OTB_name": "NBN_1_1\/8", "OTB_serial_number": "823821846", "OTB_installation_date": "2017\/09\/29", "OTB_Template": "External OTB with 1 Splitter 1x8", "Longitude": 6.3662799, "Latitude": 2.3854392, "Comment": "sample data", "ID_Prov": "Temp_8", "search_id": "NBN_1_1\/8" }, "geometry": { "type": "Point", "coordinates": [ 2.385439235599832, 6.367427092369124 ] } },
{ "type": "Feature", "properties": { "City_Region": "Temp_OTB_9", "Location_Type": "Pole", "Location_ID": "Pole_9", "OTB_name": "NBN_1_1\/9", "OTB_serial_number": "823821847", "OTB_installation_date": "2017\/09\/29", "OTB_Template": "External OTB with 1 Splitter 1x8", "Longitude": 6.3661652, "Latitude": 2.3823687, "Comment": "sample data", "ID_Prov": "Temp_9", "search_id": "NBN_1_1\/9" }, "geometry": { "type": "Point", "coordinates": [ 2.382368696866257, 6.366279874179009 ] } },
{ "type": "Feature", "properties": { "City_Region": "Temp_OTB_10", "Location_Type": "Pole", "Location_ID": "Pole_10", "OTB_name": "NBN_1_1\/10", "OTB_serial_number": "823821848", "OTB_installation_date": "2017\/09\/29", "OTB_Template": "External OTB with 1 Splitter 1x8", "Longitude": 6.3776143, "Latitude": 2.3798638, "Comment": "sample data", "ID_Prov": "Temp_10", "search_id": "NBN_1_1\/10" }, "geometry": { "type": "Point", "coordinates": [ 2.379863783688867, 6.366165152219031 ] } },
{ "type": "Feature", "properties": { "City_Region": "Temp_OTB_11", "Location_Type": "Pole", "Location_ID": "Pole_11", "OTB_name": "NBN_1_1\/11", "OTB_serial_number": "823821849", "OTB_installation_date": "2017\/09\/29", "OTB_Template": "External OTB with 1 Splitter 1x8", "Longitude": 6.3776143, "Latitude": 2.3791712, "Comment": "sample data", "ID_Prov": "Temp_11", "search_id": "NBN_1_1\/11" }, "geometry": { "type": "Point", "coordinates": [ 2.379171180967008, 6.377614277399357 ] } }
]
}
